,city,cloudiness,country,date,humidity,lat,lng,max_temp,wind
0,Kingaroy,48,AU,1541828453,42,-26.54,151.84,25.17,4.31
1,Porto Novo,75,BR,1541826000,100,-23.68,-45.44,18.0,1.0
2,Durango,1,US,1541825580,41,37.28,-107.88,-5.6,1.26
3,Busselton,0,AU,1541828454,68,-33.64,115.35,24.52,6.83
4,Atuona,0,PF,1541828454,100,-9.8,-139.03,26.85,4.26
5,Senador Jose Porfirio,56,BR,1541828455,73,-2.59,-51.95,28.4,2.73
6,Rabo de Peixe,20,PT,1541826000,88,37.8,-25.58,19.0,8.7
7,Cidreira,0,BR,1541828455,83,-30.17,-50.22,19.77,4.71
8,Ketchikan,90,US,1541825760,86,55.34,-131.65,8.3,5.1
9,Leh,80,IN,1541828456,87,34.16,77.58,-13.16,0.66
10,Noumea,75,NC,1541826000,46,-22.28,166.46,32.0,6.2
11,Benjamin Constant,75,BR,1541826000,100,-4.38,-70.03,25.0,3.1
12,Gat,0,SN,1541827867,69,14.69,-16.54,22.52,4.13
13,Kruisfontein,36,ZA,1541828457,77,-34.0,24.73,18.32,1.48
14,Puerto Ayora,68,EC,1541828338,100,-0.74,-90.35,21.67,4.58
15,Esperance,20,TT,1541826000,94,10.24,-61.45,25.0,2.16
16,Idah,32,NG,1541828458,97,7.11,6.73,23.85,2.28
17,Zhigansk,92,RU,1541828458,68,66.77,123.37,-8.83,7.08
18,Soria,12,ES,1541828458,82,41.76,-2.46,8.97,5.73
19,Saskylakh,88,RU,1541828459,74,71.97,114.09,-19.41,3.06
20,San Patricio,0,PY,1541828459,73,-26.98,-56.83,22.27,2.41
21,Cape Town,0,ZA,1541826000,72,-33.93,18.42,17.0,6.7
22,Dikson,48,RU,1541828459,100,73.51,80.55,-10.03,2.13
23,Harper,90,US,1541826900,55,30.3,-99.24,9.4,4.1
24,Husavik,8,CA,1541828460,100,50.56,-96.99,-11.98,3.81
25,Namibe,12,AO,1541828460,100,-15.19,12.15,22.07,2.26
26,Zyryanka,0,RU,1541828461,71,65.73,150.89,-26.53,2.48
27,West Bay,12,GB,1541825400,93,50.71,-2.76,7.0,1.0
28,Atar,32,MR,1541828461,83,20.52,-13.05,15.82,1.78
29,East London,0,ZA,1541826720,64,-33.02,27.91,20.0,3.6
30,Vaini,0,IN,1541828462,36,15.34,74.49,32.9,2.36
31,Bluff,0,AU,1541828462,24,-23.58,149.07,32.17,4.03
32,Udachnyy,88,RU,1541828462,86,66.42,112.4,-2.61,2.96
33,Aklavik,90,CA,1541826000,85,68.22,-135.01,-8.0,2.1
34,Severo-Kurilsk,64,RU,1541828463,100,50.68,156.12,2.9,1.93
35,Ostrovnoy,0,RU,1541828463,89,68.05,39.51,-9.53,5.31
36,Salalah,40,OM,1541825400,74,17.01,54.1,28.0,1.0
37,Ribeira Grande,36,PT,1541828464,94,38.52,-28.7,20.52,10.36
38,Alice Springs,0,AU,1541826000,12,-23.7,133.88,28.0,6.7
39,Jamestown,0,AU,1541828465,25,-33.21,138.6,25.42,3.28
40,Khatanga,36,RU,1541828465,84,71.98,102.47,-28.51,4.43
41,Provideniya,76,RU,1541828465,100,64.42,-173.23,3.37,5.33
42,Walvis Bay,90,NA,1541826000,93,-22.95,14.51,13.0,1.5
43,Maniitsoq,12,GL,1541828466,100,65.42,-52.9,-9.08,2.16
44,Barrow,100,AR,1541828466,92,-38.31,-60.23,18.67,1.23
45,Bredasdorp,0,ZA,1541826000,77,-34.53,20.04,19.0,4.1
46,Pangody,56,RU,1541828467,79,65.85,74.49,-16.66,5.21
47,Camacha,20,PT,1541826000,77,33.08,-16.33,18.0,3.6
48,Hilo,1,US,1541825760,84,19.71,-155.08,25.6,2.6
49,Puerto Carreno,44,CO,1541828468,95,6.19,-67.49,20.67,1.16
50,Yueyang,92,CN,1541828468,100,29.36,113.12,13.42,1.73
51,Punta Arenas,20,CL,1541826000,80,-53.16,-70.91,4.0,4.6
52,Correntina,44,BR,1541828468,87,-13.34,-44.63,21.17,3.41
53,Odienne,12,CI,1541828469,94,9.51,-7.57,19.97,2.46
54,Tasiilaq,0,GL,1541825400,98,65.61,-37.64,0.0,1.0
55,Sorland,80,NO,1541828469,100,67.67,12.69,8.77,6.73
56,Tual,8,ID,1541828470,100,-5.67,132.75,29.6,0.71
57,Tura,0,IN,1541828470,72,25.52,90.21,25.85,2.36
58,Bambous Virieux,20,MU,1541826000,69,-20.34,57.76,27.0,6.2
59,Hinesburg,90,US,1541826900,92,44.33,-73.11,2.8,2.6
60,Mehamn,8,NO,1541828471,89,71.03,27.85,1.07,7.53
61,Codrington,44,AU,1541828471,66,-28.95,153.24,22.67,1.73
62,Mahibadhoo,88,MV,1541828472,100,3.78,72.97,28.37,5.71
63,Vuktyl,32,RU,1541828472,81,63.86,57.31,-13.08,1.51
64,Mar del Plata,100,AR,1541828472,96,-46.43,-67.52,9.25,5.08
65,Saint-Pierre,92,FR,1541826000,93,48.95,4.24,13.0,8.7
66,Ushuaia,75,AR,1541826000,86,-54.81,-68.31,5.0,11.8
67,Ixtapa,5,MX,1541824980,100,20.71,-105.21,24.0,1.21
68,Kaniama,12,CD,1541828474,84,-7.57,24.18,22.35,1.16
69,Nemuro,75,JP,1541826000,100,43.32,145.57,12.0,2.1
70,Mataura,64,NZ,1541828475,64,-46.19,168.86,13.0,2.11
71,Yellowknife,90,CA,1541826000,78,62.45,-114.38,-12.0,4.6
72,Vilyuysk,32,RU,1541828475,65,63.75,121.63,-8.43,4.16
73,Sagua la Grande,20,CU,1541825400,88,22.81,-80.07,22.0,0.5
74,Lebu,56,ET,1541828476,79,8.96,38.73,15.32,1.01
75,Rikitea,8,PF,1541828476,100,-23.12,-134.97,21.57,5.86
76,Acajutla,20,SV,1541828476,96,13.59,-89.83,24.57,0.08
77,Araguari,92,BR,1541828477,98,-18.65,-48.19,18.57,5.93
78,Kandrian,20,PG,1541828477,67,-6.21,149.55,29.62,2.63
79,Jiuquan,0,CN,1541828477,61,39.73,98.49,3.85,2.06
80,Tiksi,64,RU,1541828478,54,71.64,128.87,-20.41,2.06
81,Georgetown,92,GY,1541828478,91,6.8,-58.16,25.9,2.06
82,Mount Isa,0,AU,1541826000,11,-20.73,139.49,37.0,5.7
83,Chuy,12,UY,1541828479,73,-33.69,-53.46,22.12,6.98
84,New Norfolk,0,AU,1541826000,32,-42.78,147.06,20.0,5.1
85,Haines Junction,56,CA,1541828479,100,60.75,-137.51,-13.48,0.66
86,Ipanema,0,BR,1541826000,83,-30.14,-51.22,21.0,2.63
87,Luang Prabang,75,LA,1541826000,69,19.89,102.14,27.0,1.0
88,Burnie,24,AU,1541828480,97,-41.05,145.91,13.87,7.63
89,Shingu,20,JP,1541826000,43,33.72,135.99,21.0,9.3
90,El Retorno,48,CO,1541828481,98,2.33,-72.63,22.6,0.88
91,Port Alfred,36,ZA,1541828481,77,-33.59,26.89,20.6,3.81
92,Nikolskoye,90,RU,1541826000,93,59.7,30.79,3.0,5.0
93,Nome,1,US,1541826900,89,30.04,-94.42,10.0,4.43
94,Hobart,0,AU,1541826000,32,-42.88,147.33,20.0,5.1
95,The Pas,75,CA,1541826000,78,53.82,-101.24,-13.0,4.1
96,Airai,68,TL,1541828483,72,-8.93,125.41,25.82,0.83
97,Muros,40,ES,1541826000,93,42.77,-9.06,11.0,3.6
98,Arraial do Cabo,92,BR,1541828483,100,-22.97,-42.02,21.67,9.98
99,Victoria,75,BN,1541826000,79,5.28,115.24,31.0,2.1
100,Faya,0,SA,1541826000,59,18.39,42.45,18.0,1.91
101,Plettenberg Bay,36,ZA,1541828484,96,-34.05,23.37,17.1,3.63
102,Kloulklubed,75,PW,1541825400,94,7.04,134.26,26.0,1.5
103,Saint-Philippe,90,CA,1541827140,86,45.36,-73.48,3.0,6.2
104,Coacotla,40,MX,1541825580,83,17.94,-94.66,27.0,5.1
105,Edson,90,CA,1541827440,80,53.59,-116.44,1.0,6.7
106,Rundu,0,NA,1541828486,25,-17.91,19.77,23.62,4.13
107,Zhezkazgan,90,KZ,1541826000,85,47.8,67.71,-10.0,6.0
108,Sokolo,0,ML,1541828486,36,14.74,-6.12,19.77,4.98
109,Kapaa,90,US,1541825760,87,22.08,-159.32,24.4,7.7
110,Damaturu,0,NG,1541828487,34,11.75,11.96,15.72,2.73
111,Isangel,76,VU,1541828487,97,-19.55,169.27,25.35,7.63
112,Luderitz,0,NA,1541826000,100,-26.65,15.16,13.0,3.1
113,Topolobampo,0,MX,1541828488,89,25.6,-109.05,21.32,4.36
114,Qaqortoq,100,GL,1541825400,79,60.72,-46.03,-4.0,1.5
115,Qaanaaq,0,GL,1541828488,100,77.48,-69.36,-23.51,1.73
116,Waingapu,0,ID,1541828489,85,-9.65,120.26,29.6,1.88
117,Nuevitas,5,CU,1541825400,94,21.55,-77.27,23.0,3.1
118,Hermanus,44,ZA,1541828489,79,-34.42,19.24,15.82,2.26
119,Belen,40,TR,1541825400,87,36.49,36.19,12.0,1.5
120,Nanortalik,56,GL,1541828490,94,60.14,-45.24,0.07,5.53
121,Ambulu,48,ID,1541828490,100,-8.35,113.61,27.37,2.68
122,Kortkeros,0,RU,1541826000,92,61.81,51.56,-12.0,1.13
123,Saint Anthony,20,US,1541825760,53,43.97,-111.68,0.6,1.5
124,Alanya,20,TR,1541828491,100,36.55,32.0,16.1,2.86
125,Biak,80,ID,1541828492,81,-0.91,122.88,28.72,1.71
126,Belaya Gora,0,RU,1541828492,48,68.54,146.19,-33.86,1.93
127,Saint-Claude,75,FR,1541826000,100,46.39,5.86,8.0,1.0
128,Aksarka,64,RU,1541828493,83,66.56,67.8,-10.33,7.51
129,Torbay,75,CA,1541826000,100,47.66,-52.73,0.0,5.1
130,Talaya,44,RU,1541828493,84,55.79,84.89,-17.48,3.03
131,Vostok,88,RU,1541828494,83,46.45,135.83,-0.11,2.68
132,Lluta,0,PE,1541826000,35,-16.02,-72.01,13.0,1.0
133,Ler,0,NO,1541825400,80,63.2,10.3,4.0,4.1
134,Bubaque,0,GW,1541826000,100,11.28,-15.83,25.0,1.5
135,Geraldton,90,CA,1541826000,78,49.72,-86.95,-11.0,4.1
136,Marawi,88,PH,1541828495,83,8.0,124.29,25.62,1.43
137,Avarua,90,CK,1541826000,78,-21.21,-159.78,25.0,5.1
138,Hithadhoo,80,MV,1541828495,100,-0.6,73.08,28.75,8.98
139,Antofagasta,90,CL,1541826000,72,-23.65,-70.4,17.0,1.5
140,Amherstburg,75,US,1541826900,65,42.1,-83.11,-0.3,3.1
141,Darfield,56,NZ,1541826000,62,-43.49,172.11,13.0,7.2
142,Dovers,92,VC,1541828497,100,12.88,-61.18,27.17,7.78
143,Ayan,0,TR,1541828497,82,40.67,33.6,0.62,0.93
144,Paita,20,PE,1541828497,87,-5.09,-81.11,19.27,2.23
145,Albany,90,US,1541826540,88,42.65,-73.75,6.7,2.1
146,Saldanha,100,PT,1541828498,97,41.42,-6.55,12.6,8.06
147,Najran,0,SA,1541826000,36,17.54,44.22,24.0,2.1
148,Solenzo,8,BF,1541828499,67,12.18,-4.08,19.07,1.23
149,Baykit,32,RU,1541828499,52,61.68,96.39,-20.58,3.96
150,Kodiak,1,US,1541825580,80,39.95,-94.76,-9.4,2.1
151,Cabedelo,20,BR,1541826000,74,-6.97,-34.84,26.0,5.1
152,Iqaluit,75,CA,1541826000,85,63.75,-68.52,-10.0,2.1
153,Loralai,24,PK,1541828500,28,30.37,68.6,18.67,1.51
154,Iquitos,75,PE,1541826000,94,-3.75,-73.25,25.0,2.6
155,Kavaratti,0,IN,1541828501,100,10.57,72.64,29.22,1.83
156,Castro,44,CL,1541828501,93,-42.48,-73.76,8.5,0.81
157,Kaitangata,80,NZ,1541828502,84,-46.28,169.85,10.57,1.78
158,Carnarvon,36,ZA,1541828502,9,-30.97,22.13,20.62,1.36
159,Rio Gallegos,0,AR,1541826000,69,-51.62,-69.22,2.0,4.1
160,Luganville,80,VU,1541828503,99,-15.51,167.18,27.0,5.96
161,Sandpoint,75,US,1541826600,100,48.28,-116.55,0.0,1.01
162,Jumla,8,NP,1541828504,70,29.28,82.18,4.82,0.46
163,San Cristobal,40,EC,1541826000,100,-0.39,-78.55,11.0,1.0
164,Becerril,88,CO,1541828504,97,9.7,-73.28,22.1,0.33
165,Roblin,36,CA,1541828504,75,51.23,-101.35,-12.88,7.01
166,Manzhouli,0,CN,1541828505,56,49.6,117.43,-2.98,2.03
167,Cherskiy,76,RU,1541828505,88,68.75,161.3,-17.78,1.58
168,Tayu,20,JP,1541826000,52,35.06,136.67,20.0,12.3
169,Broome,20,GB,1541825760,100,52.47,1.45,11.0,6.2
170,Galesong,20,ID,1541827800,62,-5.32,119.37,32.0,3.6
171,Ponta do Sol,92,BR,1541828507,98,-20.63,-46.0,16.37,3.93
172,Kenai,1,US,1541825760,96,60.55,-151.26,1.1,2.1
173,Puerto Quijarro,8,BO,1541828507,93,-19.0,-57.72,22.87,1.23
174,Talcahuano,90,CL,1541826000,93,-36.72,-73.12,15.0,4.1
175,Coahuayana,0,MX,1541828508,86,18.62,-100.35,17.1,1.21
176,Coquimbo,0,CL,1541826000,93,-29.95,-71.34,12.0,2.6
177,Sinegorskiy,56,RU,1541828508,89,48.01,40.84,-1.33,1.58
178,Clyde River,20,CA,1541826000,83,70.47,-68.59,-22.0,1.0
179,Butaritari,76,KI,1541828509,100,3.07,172.79,27.37,1.61
180,Palmer,0,AU,1541826000,23,-34.85,139.16,23.0,5.1
181,Mumbwa,0,ZM,1541828509,59,-14.99,27.06,21.57,6.63
182,Camocim,24,BR,1541828510,87,-2.9,-40.84,25.12,6.83
183,Ewa Beach,20,US,1541825820,73,21.32,-158.01,26.1,2.6
184,Rivadavia,0,AR,1541828510,75,-31.53,-68.59,17.47,1.43
185,Falam,8,MM,1541828510,69,22.91,93.68,21.62,0.88
186,Leningradskiy,80,RU,1541828511,98,69.38,178.42,-4.91,8.46
187,Trofors,0,NO,1541825400,70,65.54,13.39,7.0,6.7
188,Milkovo,0,BG,1541826000,100,41.53,24.68,7.0,1.5
189,Birjand,75,IR,1541826000,47,32.86,59.22,13.0,1.81
190,Ugento,75,IT,1541825700,93,39.93,18.16,15.0,2.6
191,Hami,0,CN,1541828512,69,42.84,93.51,8.6,2.38
192,Morro Bay,1,US,1541825760,21,35.37,-120.85,12.8,1.71
193,Anadyr,90,RU,1541826000,92,64.73,177.51,-3.0,13.0
194,Chokurdakh,0,RU,1541828513,49,70.62,147.9,-26.73,5.21
195,Port Blair,80,IN,1541828513,100,11.67,92.75,26.67,7.13
196,Cockburn Town,100,TC,1541828514,96,21.46,-71.14,28.22,5.16
197,Camacupa,88,AO,1541828514,95,-12.02,17.48,18.27,1.61
198,Voznesenye,80,RU,1541828514,100,61.02,35.48,0.92,5.33
199,Bavly,0,RU,1541828515,64,54.4,53.24,-9.26,5.03
200,Vangaindrano,80,MG,1541828515,87,-23.35,47.6,21.32,2.78
201,Kalmunai,56,LK,1541828515,86,7.42,81.82,28.5,3.36
202,Karratha,12,AU,1541828513,26,-20.74,116.85,37.75,5.11
203,Dutse,8,NG,1541828516,33,11.76,9.34,16.1,3.31
204,Nantucket,90,US,1541826900,96,41.28,-70.1,13.3,11.8
205,Toyooka,20,JP,1541826000,39,35.55,134.82,18.0,4.1
206,Bejar,8,AL,1541828517,100,40.49,19.83,7.97,1.71
207,Tabas,92,IR,1541826000,36,33.6,56.92,16.0,1.0
208,Caravelas,100,BR,1541828517,100,-17.73,-39.27,25.02,6.06
209,Burla,32,RU,1541828517,85,53.34,78.33,-13.68,2.93
210,Vestmannaeyjar,48,IS,1541828518,87,63.44,-20.27,7.82,11.16
211,Khasan,0,RU,1541828518,98,42.43,130.64,8.07,6.63
212,Awbari,32,LY,1541828518,44,26.59,12.77,14.5,3.36
213,Sola,75,FI,1541825400,100,62.78,29.36,0.0,4.1
214,Jhang,8,PK,1541826000,55,33.67,72.7,18.0,1.66
215,Talnakh,24,RU,1541828519,51,69.49,88.39,-35.01,1.13
216,Staryy Nadym,44,RU,1541828520,75,65.61,72.68,-13.33,6.31
217,Vila Velha,40,BR,1541826000,74,-3.71,-38.6,27.0,8.2
218,Pangnirtung,32,CA,1541828520,89,66.15,-65.72,-10.53,1.38
219,Necochea,88,AR,1541828520,94,-38.55,-58.74,18.02,1.96
220,Betul,0,IN,1541828521,47,21.92,77.9,28.75,1.96
221,Manggar,56,ID,1541828521,98,-2.88,108.27,28.9,1.56
222,Reftinskiy,0,RU,1541826000,85,57.09,61.68,-12.0,2.0
223,Port Elizabeth,90,US,1541826540,93,39.31,-74.98,12.2,6.7
224,Road Town,1,VG,1541825580,87,18.42,-64.62,26.7,2.6
225,Trelew,92,AR,1541828522,95,-43.25,-65.31,11.02,3.91
226,Samur,64,RU,1541828522,100,41.83,48.49,12.72,1.96
227,Longyearbyen,75,NO,1541825400,74,78.22,15.63,1.0,4.1
228,Saint Lawrence,40,MT,1541825100,82,36.06,14.2,16.0,2.1
229,Port Hardy,90,CA,1541826000,93,50.7,-127.42,8.0,4.6
230,Makakilo City,20,US,1541825820,73,21.35,-158.09,26.1,2.6
231,Vanimo,8,PG,1541828524,100,-2.67,141.3,28.57,3.93
232,Aginskoye,0,RU,1541828524,60,51.11,114.54,-3.33,3.83
233,Naryan-Mar,64,RU,1541828525,91,67.67,53.09,-9.53,3.53
234,Mayo,90,CA,1541826000,85,63.59,-135.9,-12.0,1.5
235,Vung Tau,40,VN,1541826000,44,10.35,107.08,34.0,4.6
236,Fairbanks,90,US,1541825940,90,64.84,-147.72,-8.3,2.6
237,Barcelona,20,ES,1541826000,76,41.38,2.18,10.0,2.6
238,Shimoda,20,JP,1541826000,77,34.7,138.93,21.0,4.1
239,Pervomayskiy,80,RU,1541828527,97,53.24,40.29,0.57,2.38
240,Straseni,20,MD,1541826000,100,47.14,28.61,-3.0,2.03
241,Teknaf,0,BD,1541828528,70,20.86,92.31,29.15,1.46
242,Bethel,75,US,1541825580,95,60.79,-161.76,0.0,5.1
243,Pirapora,92,BR,1541828529,99,-17.35,-44.95,18.65,5.21
244,Khorixas,0,NA,1541828529,42,-20.37,14.96,20.52,1.58
245,Port Lincoln,12,AU,1541828529,64,-34.72,135.86,21.65,1.61
246,Umm Kaddadah,0,SD,1541828530,28,13.6,26.69,17.72,5.11
247,Vestmanna,92,FO,1541825400,93,62.16,-7.17,9.0,21.1
248,Arman,0,RU,1541826000,59,59.7,150.17,-18.0,1.03
249,Bilma,0,NE,1541828530,35,18.69,12.92,11.82,1.93
250,Oum Hadjer,0,TD,1541828531,38,13.3,19.7,18.42,2.18
251,Comodoro Rivadavia,75,AR,1541826000,87,-45.87,-67.48,11.0,1.5
252,Mandurah,0,AU,1541827800,53,-32.55,115.7,25.0,4.6
253,Monrovia,75,LR,1541826000,94,6.33,-10.8,25.0,1.88
254,Komsomolskiy,80,RU,1541828532,86,67.55,63.78,-8.48,3.86
255,Sousa,75,JP,1541827320,64,35.69,140.55,22.0,4.6
256,Zambezi,48,ZM,1541828532,54,-13.55,23.12,23.62,5.61
257,Iskateley,44,RU,1541828533,62,67.68,53.15,-13.53,2.58
258,Alvand,75,IR,1541826000,93,36.19,50.06,9.0,2.1
259,Guanaja,32,CU,1541825700,100,23.08,-82.07,23.0,0.5
260,Hueyapan,80,MX,1541828534,92,19.88,-97.44,15.22,0.71
261,Orlik,76,RU,1541828534,68,52.51,99.83,-5.08,1.13
262,Bulaevo,48,KZ,1541828534,83,54.91,70.44,-12.33,2.18
263,Balabac,48,PH,1541828535,100,7.99,117.06,27.9,4.36
264,Deming,1,US,1541826900,65,32.27,-107.76,7.2,3.6
265,Upernavik,12,GL,1541828535,100,72.79,-56.15,-8.18,7.28
266,Nouadhibou,0,MR,1541826000,72,20.93,-17.03,19.0,7.7
267,Broken Hill,0,AU,1541828536,33,-31.97,141.45,26.82,2.03
268,Zanjan,75,IR,1541826000,93,36.67,48.48,6.0,1.0
269,Stromness,90,CA,1541827140,95,42.87,-79.55,2.8,6.7
270,Penzance,92,GB,1541825400,87,50.12,-5.53,12.0,8.7
271,Kingsville,90,US,1541826180,100,39.45,-76.42,10.0,4.1
272,Atherton,40,GB,1541825400,81,53.52,-2.49,9.0,3.6
273,Tuatapere,64,NZ,1541828538,84,-46.13,167.69,12.25,3.83
274,Pisco,0,PE,1541826000,88,-13.71,-76.2,17.0,3.6
275,Key West,90,US,1541826900,78,47.93,-96.78,-11.0,1.36
276,Shubarkuduk,92,KZ,1541828539,71,49.15,56.49,-3.28,6.53
277,Havelock,90,US,1541825880,100,34.88,-76.9,20.6,2.6
278,Grand Gaube,20,MU,1541826000,69,-20.01,57.66,27.0,6.2
279,Narsaq,68,GL,1541825400,79,60.91,-46.05,-4.0,1.5
280,Prado,56,BR,1541828540,96,-17.34,-39.22,25.97,6.78
281,Mackay,90,CA,1541827440,80,53.65,-115.58,1.0,6.7
282,Tirur,20,IN,1541827800,66,10.92,75.92,31.0,1.5
283,Gambo,8,NG,1541828541,33,11.96,9.63,16.1,3.31
284,Cabo San Lucas,5,MX,1541824800,78,22.89,-109.91,23.0,2.6
285,Hamilton,75,BM,1541825700,88,32.3,-64.78,24.0,5.7
286,Aitape,32,PG,1541828542,94,-3.15,142.36,28.75,2.38
287,Nizhniy Odes,44,RU,1541828542,80,63.64,54.86,-11.73,1.51
288,Smidovich,92,RU,1541828542,96,48.6,133.81,2.0,1.68
289,Tuktoyaktuk,90,CA,1541826000,92,69.44,-133.03,-9.0,4.1
290,Anloga,20,GH,1541826000,88,5.79,0.9,26.0,1.5
291,Jacareacanga,32,BR,1541828543,92,-6.22,-57.76,25.07,0.83
292,Sao Borja,0,BR,1541828544,81,-28.66,-56.0,20.02,2.96
293,Thompson,75,CA,1541826000,78,55.74,-97.86,-13.0,3.1
294,Prince Rupert,90,CA,1541827200,87,54.32,-130.32,8.0,1.5
295,North Platte,1,US,1541825580,69,41.12,-100.77,-9.4,4.6
296,Kipini,48,KE,1541828545,81,-2.53,40.53,27.97,4.73
297,Shagonar,44,RU,1541828545,86,51.54,92.92,-5.03,1.33
298,Nioro,0,GM,1541828545,60,13.79,-15.05,20.97,3.26
299,Daru,56,SL,1541828546,97,7.99,-10.85,21.17,1.06
300,Luanda,80,AO,1541828546,92,-8.83,13.24,24.9,2.38
301,Bonanza,44,NI,1541828547,97,14.03,-84.62,21.57,1.13
302,Laguna,0,MX,1541828547,78,27.52,-110.01,15.37,1.03
303,Ashnak,0,AM,1541826000,93,40.33,43.92,2.0,0.83
304,San Borja,36,BO,1541828548,94,-14.86,-66.75,22.57,0.98
305,Saint-Augustin,90,FR,1541826000,93,44.83,-0.61,12.0,3.1
306,Port-Cartier,90,CA,1541826000,73,50.03,-66.88,-3.0,3.1
307,Bartica,56,GY,1541828549,94,6.41,-58.62,24.92,1.06
308,Klaksvik,100,FO,1541825400,93,62.23,-6.59,9.0,21.1
309,Ugoofaaru,32,MV,1541828549,100,5.67,73.0,28.62,2.13
310,Riyadh,20,SA,1541826000,93,24.63,46.72,18.0,2.1
311,Farafangana,100,MG,1541828550,100,-22.82,47.83,21.82,6.51
312,Yerbogachen,24,RU,1541828550,54,61.28,108.01,-5.26,4.86
313,Bosaso,20,SO,1541826000,88,11.28,49.18,26.0,5.1
314,Basoko,0,CD,1541828551,89,1.23,23.61,24.02,1.78
315,Tilichiki,12,RU,1541828551,84,60.47,166.1,-10.63,3.83
316,Fortuna,0,ES,1541826000,55,38.18,-1.13,16.0,9.8
317,Richmond,90,CA,1541826900,93,49.16,-123.14,7.0,4.6
318,Margate,75,AU,1541827800,45,-43.03,147.26,18.0,5.1
319,Kaeo,0,NZ,1541828553,55,-35.1,173.78,17.15,4.98
320,Borogontsy,0,RU,1541828553,84,62.67,131.17,-14.76,3.18
321,Karpathos,8,GR,1541825400,77,35.51,27.21,17.0,1.0
322,Warragul,0,AU,1541828553,61,-38.16,145.93,18.17,1.73
323,Joshimath,8,IN,1541828554,100,30.57,79.57,-8.73,0.23
324,Rocha,36,UY,1541828554,83,-34.48,-54.34,20.67,2.86
325,Ozernovskiy,56,RU,1541828554,96,51.5,156.52,-0.26,1.83
326,Crailsheim,90,DE,1541826660,100,49.14,10.07,7.0,2.1
327,Boddam,75,GB,1541825400,87,57.47,-1.78,10.0,8.2
328,Thinadhoo,12,MV,1541828555,98,0.53,72.93,29.17,8.06
329,Saint George,75,GR,1541825400,93,39.45,22.34,9.0,3.1
330,Kyzyl-Suu,20,KG,1541828556,100,42.34,78.0,-0.51,2.51
331,Sinnamary,48,GF,1541828556,95,5.38,-52.96,27.32,5.26
332,Beringovskiy,92,RU,1541828556,100,63.05,179.32,1.6,11.71
333,Leon,1,US,1541825700,83,40.74,-93.75,-8.0,4.6
334,Mahebourg,20,MU,1541826000,69,-20.41,57.7,27.0,6.2
335,Padampur,0,IN,1541828557,77,29.71,73.62,24.0,2.71
336,Sangmelima,92,CM,1541828558,99,2.93,11.98,21.67,1.26
337,Kharp,0,RU,1541828558,71,66.82,65.8,-11.51,5.61
338,Aswan,0,EG,1541826000,45,24.09,32.9,19.0,1.5
339,Ambunti,36,PG,1541828559,75,-4.22,142.82,30.27,1.36
340,Abaza,76,RU,1541828559,62,52.65,90.1,-7.68,1.46
341,Ilulissat,0,GL,1541825400,72,69.22,-51.1,-9.0,2.1
342,Fort Abbas,32,PK,1541828559,67,29.19,72.85,24.72,2.13
343,Birao,0,CF,1541828560,38,10.3,22.78,20.17,2.81
344,Lavrentiya,12,RU,1541828560,99,65.58,-170.99,3.5,7.21
345,Dunmore Town,92,BS,1541828560,100,25.5,-76.65,26.4,3.28
346,Norman Wells,20,CA,1541826000,92,65.28,-126.83,-12.0,4.1
347,Ziro,20,IN,1541826000,65,27.54,93.82,25.0,1.0
348,Puerto Escondido,12,MX,1541828561,100,15.86,-97.07,28.85,1.46
349,Los Llanos de Aridane,0,ES,1541826000,77,28.66,-17.92,19.0,4.6
350,Abapo,0,BO,1541828562,80,-18.83,-63.47,19.47,1.43
351,Balkany,90,HU,1541825100,100,47.77,21.86,1.0,1.0
352,Banjar,68,ID,1541828562,79,-7.37,108.54,27.97,1.71
353,Katsuura,20,JP,1541826000,42,33.93,134.5,19.0,9.3
354,Mugur-Aksy,68,RU,1541828563,63,50.38,90.44,-7.38,3.28
355,Camopi,24,GF,1541828563,80,3.17,-52.33,25.47,1.11
356,Eunice,1,US,1541825700,87,30.49,-92.42,9.4,5.93
357,Terra Santa,0,BR,1541828564,68,-2.1,-56.49,27.62,2.26
358,Hastings,76,NZ,1541828564,97,-39.64,176.84,13.37,4.96
359,Turbat,0,PK,1541828564,43,26.0,63.05,28.0,1.96
360,Fort Nelson,75,CA,1541826000,92,58.81,-122.69,-7.0,1.06
361,Xuddur,32,SO,1541828565,77,4.12,43.89,25.22,3.28
362,Pevek,80,RU,1541828565,97,69.7,170.27,-10.58,3.81
363,Linxia,0,CN,1541828566,63,35.6,103.21,3.6,1.48
364,Linqing,88,CN,1541828566,49,36.85,115.71,16.42,1.93
365,Quatre Cocos,20,MU,1541826000,69,-20.21,57.76,27.0,6.2
366,Along,0,IN,1541828567,49,28.17,94.8,20.5,0.76
367,Axim,8,GH,1541828548,100,4.87,-2.24,27.32,2.26
368,Cap-aux-Meules,68,CA,1541828567,100,47.38,-61.86,4.52,0.91
369,Tautira,20,PF,1541826000,65,-17.73,-149.15,27.0,2.6
370,Havoysund,0,NO,1541825400,75,71.0,24.66,5.0,10.3
371,La Ronge,90,CA,1541826000,78,55.1,-105.3,-11.0,4.6
372,Slave Lake,90,CA,1541827500,76,55.28,-114.77,0.0,6.7
373,Dunedin,92,NZ,1541828447,100,-45.87,170.5,8.12,1.51
374,Malabor,68,PH,1541828569,92,11.27,122.05,28.27,7.43
375,Hervey Bay,44,AU,1541828569,99,-25.3,152.85,22.5,5.51
376,Sao Filipe,92,CV,1541828569,94,14.9,-24.5,25.82,7.88
377,Prachuap Khiri Khan,92,TH,1541828570,92,11.81,99.79,25.27,1.48
378,Portland,90,US,1541827260,76,45.52,-122.67,9.4,0.93
379,Charters Towers,8,AU,1541828570,57,-20.07,146.27,28.47,5.51
380,Russell,0,AR,1541828570,73,-33.01,-68.8,11.32,0.31
381,Vila do Maio,0,CV,1541826000,73,15.13,-23.22,25.0,5.1
382,Inhambane,20,MZ,1541826000,68,-23.87,35.38,22.0,5.28
383,Ancud,76,CL,1541828571,99,-41.87,-73.83,7.62,1.56
384,Lucapa,20,AO,1541828571,96,-8.42,20.74,21.72,1.61
385,Okato,0,NZ,1541828572,92,-39.19,173.88,14.87,7.23
386,Kuytun,92,RU,1541828572,82,54.34,101.51,-4.08,2.13
387,Samarinda,48,ID,1541828572,83,-0.5,117.14,28.57,1.28
388,Alofi,100,NU,1541826000,74,-19.06,-169.92,27.0,1.5
389,Pangkalanbuun,88,ID,1541828573,89,-2.68,111.62,28.77,1.73
390,Guerrero Negro,0,MX,1541828573,72,27.97,-114.04,17.65,5.26
391,Constantine,75,DZ,1541826000,81,36.36,6.61,8.0,0.5
392,Aranos,0,NA,1541828574,21,-24.14,19.11,21.85,6.63
393,Istok,80,PL,1541828574,99,52.85,23.44,2.52,3.83
394,Mbamba,0,NG,1541828574,41,9.98,13.1,16.97,1.81
395,Dedougou,0,BF,1541828575,56,12.47,-3.47,17.22,1.28
396,Faanui,24,PF,1541828575,100,-16.48,-151.75,27.15,9.41
397,Lompoc,1,US,1541825880,60,34.64,-120.46,12.8,2.1
398,Gorontalo,80,ID,1541828576,81,0.54,123.06,27.75,1.16
399,Bandarbeyla,92,SO,1541828576,99,9.49,50.81,28.02,4.16
400,Cairns,40,AU,1541826000,58,-16.92,145.77,30.0,6.7
401,Erenhot,0,CN,1541828576,51,43.65,111.97,4.72,6.33
402,Vila Franca do Campo,20,PT,1541826000,88,37.72,-25.43,19.0,8.7
403,Boa Vista,64,BR,1541828291,95,2.82,-60.67,23.17,2.11
404,Port Augusta,0,AU,1541826000,31,-32.49,137.76,25.0,5.7
405,Bulgan,0,MN,1541828578,41,48.81,103.53,3.72,3.96
406,Bolshoye Murashkino,80,RU,1541828578,84,55.78,44.78,-2.08,5.21
407,Inuvik,90,CA,1541826000,85,68.36,-133.71,-8.0,2.1
408,Bambanglipuro,92,ID,1541828579,91,-7.95,110.28,27.72,2.06
409,Lingyuan,20,CN,1541828579,51,41.24,119.4,7.85,3.13
410,Kamaishi,75,JP,1541826000,63,39.28,141.86,17.0,2.1
411,Mount Gambier,8,AU,1541828580,74,-37.83,140.78,18.57,1.81
412,Antalaha,64,MG,1541828580,84,-14.9,50.28,26.5,4.58
413,Bonavista,48,CA,1541828580,100,48.65,-53.11,2.42,7.98
414,Ponta Delgada,20,PT,1541826000,88,37.73,-25.67,19.0,8.7
415,Batagay,0,RU,1541828581,31,67.65,134.64,-29.76,1.28
416,Honningsvag,0,NO,1541828582,100,70.98,25.97,3.1,8.91
417,Anta,75,PE,1541826000,76,-13.47,-72.15,10.0,2.1
418,Djenne,0,ML,1541828582,47,13.91,-4.55,20.65,5.08
419,Bowen,90,AU,1541826000,83,-20.01,148.25,25.0,5.7
420,Mbini,76,GQ,1541828583,100,1.58,9.62,25.4,0.98
421,Dingle,68,PH,1541828584,67,11.0,122.67,29.72,6.86
422,Flinders,75,AU,1541826000,45,-34.58,150.85,20.0,5.7
423,Port Hedland,0,AU,1541826000,46,-20.31,118.58,34.0,7.7
424,Victoria,75,BN,1541827800,79,5.28,115.24,31.0,2.1
425,Swan Hill,0,AU,1541828585,38,-35.34,143.56,24.22,2.16
426,Le Port,68,FR,1541828585,89,42.87,1.37,-2.11,0.61
427,Nelson Bay,12,AU,1541827800,60,-32.72,152.14,21.0,8.2
428,Yenagoa,0,NG,1541828586,93,4.92,6.26,23.4,1.46
429,Sol-Iletsk,68,RU,1541828586,65,51.16,55.0,-1.93,4.53
430,Houma,92,CN,1541828393,100,35.63,111.36,7.62,0.76
431,Aykhal,80,RU,1541828587,89,65.95,111.51,-3.26,3.41
432,Lalmohan,0,BD,1541828587,73,22.34,90.74,28.1,2.78
433,Kijang,0,KR,1541826000,37,35.24,129.21,19.0,4.6
434,Gandorhun,12,SL,1541828588,98,8.44,-10.86,20.72,1.28
435,Peace River,90,CA,1541826000,85,56.23,-117.29,-4.0,2.1
436,Polunochnoye,0,RU,1541828588,60,60.87,60.43,-16.68,1.81
437,Miles City,90,US,1541825580,68,46.41,-105.84,-1.1,4.6
438,Cortez,1,US,1541825580,48,37.35,-108.58,-7.2,2.6
439,Sistranda,0,NO,1541828589,100,63.73,8.83,5.25,5.98
440,Khamza,0,UZ,1541826000,61,40.42,71.51,9.0,1.0
441,Lima,56,PE,1541828529,80,-12.06,-77.04,15.15,1.06
442,Sundsvall,92,SE,1541825400,100,62.39,17.31,5.0,0.5
443,Miandrivazo,12,MG,1541828590,40,-19.53,45.46,28.67,1.51
444,Limoeiro do Ajuru,20,BR,1541828590,82,-1.9,-49.38,28.6,4.58
445,Bamiantong,80,CN,1541828591,82,44.93,130.53,0.32,5.06
446,Vredendal,0,ZA,1541828591,40,-31.68,18.49,23.15,1.66
447,Viedma,8,AR,1541828591,86,-40.81,-62.99,12.17,4.98
448,Manavalakurichi,20,IN,1541827800,70,8.13,77.3,31.0,1.5
449,Hasaki,75,JP,1541827320,64,35.73,140.83,22.0,4.6
450,Sitka,0,US,1541828592,70,37.17,-99.65,-8.03,3.81
451,Aksu,75,KZ,1541826000,71,52.04,76.93,-13.0,2.0
452,Conchas,88,BR,1541828593,99,-23.02,-48.01,17.9,2.93
453,Qianguo,0,CN,1541828593,75,45.12,124.86,3.72,4.41
454,Mocorito,0,MX,1541828594,59,25.48,-107.92,20.17,2.18
455,Meaux,75,FR,1541826000,87,48.96,2.9,12.0,11.3
456,Havre-Saint-Pierre,75,CA,1541826000,86,50.23,-63.6,-3.0,3.1
457,Ust-Nera,8,RU,1541828594,56,64.57,143.24,-36.76,0.83
458,Hay River,75,CA,1541826000,78,60.82,-115.79,-11.0,5.7
459,Romilly-sur-Seine,92,FR,1541826000,87,48.52,3.72,12.0,8.2
460,Mumford,0,GH,1541828595,94,5.26,-0.76,24.67,1.78
461,Brasilia,40,BR,1541826000,74,-10.9,-37.55,26.0,4.6
462,Lensk,76,RU,1541828596,51,60.71,114.91,-0.51,2.58
463,Taoudenni,0,ML,1541828596,50,22.68,-3.98,11.37,1.26
464,Asyut,0,EG,1541826000,62,27.18,31.19,15.0,1.48
465,Toba,20,JP,1541826000,52,34.47,136.83,20.0,12.3
466,Salvador,40,BR,1541826000,83,-12.98,-38.48,26.0,4.6
467,Kysyl-Syr,32,RU,1541828598,71,63.9,122.77,-11.63,5.53
468,Edeia,92,BR,1541828598,97,-17.34,-49.93,19.75,1.71
469,Chimbote,56,PE,1541828598,98,-9.08,-78.59,16.57,0.76
470,Powell,75,US,1541827020,86,40.16,-83.08,0.6,6.2
471,Ngunguru,36,NZ,1541828599,86,-35.62,174.5,17.57,6.16
472,Ust-Tsilma,36,RU,1541828599,94,65.44,52.15,-13.66,1.58
473,Tanout,0,NE,1541828599,24,14.97,8.88,16.22,3.46
474,Kananga,44,CD,1541828599,95,-5.9,22.41,21.97,1.61
475,Touros,88,BR,1541828600,88,-5.2,-35.46,25.5,6.96
476,Palmerston,90,CA,1541827920,86,43.83,-80.85,0.0,11.8
477,Enshi,92,CN,1541828600,100,30.29,109.48,10.85,1.58
478,Coihaique,0,CL,1541826000,87,-45.58,-72.07,7.0,1.5
479,San Quintin,20,PH,1541826000,52,17.54,120.52,33.0,2.1
480,Jardim,0,BR,1541828601,85,-21.48,-56.15,21.92,4.31
481,Srednekolymsk,0,RU,1541828602,59,67.46,153.71,-28.86,1.06
482,Lazne Bohdanec,90,CZ,1541826000,81,50.08,15.68,10.0,2.6
483,Souillac,90,FR,1541826000,93,45.6,-0.6,11.0,7.2
484,Fomboni,32,KM,1541828603,100,-12.28,43.74,26.47,8.41
485,Coos Bay,1,US,1541825760,89,43.37,-124.22,7.8,1.5
486,Velikiy Ustyug,76,RU,1541828603,91,60.76,46.3,-6.33,2.93
487,Tome,75,JP,1541826000,59,38.69,141.2,18.0,4.1
488,Shache,44,CN,1541828448,57,38.42,77.24,9.02,1.78
489,Middle Island,90,US,1541826900,89,40.88,-72.94,10.6,1.5
490,Makokou,92,GA,1541828604,97,0.56,12.85,23.17,1.16
491,Aiani,75,GR,1541825400,93,40.17,21.82,6.0,0.26
492,Nola,48,CF,1541828605,95,3.52,16.05,21.4,1.33
493,Tumwater,75,US,1541827380,100,47.01,-122.91,6.1,1.06
494,Yeppoon,0,AU,1541827800,42,-23.13,150.74,28.0,5.7
495,Sangar,0,RU,1541828606,65,63.92,127.47,-10.51,5.33
496,Meulaboh,20,ID,1541828606,100,4.14,96.13,27.82,1.96
497,Pacific Grove,75,US,1541825700,27,36.62,-121.92,12.8,3.1
498,Norton Shores,90,US,1541827020,68,43.17,-86.26,-2.2,5.7
499,Kaisiadorys,90,LT,1541825400,93,54.87,24.45,6.0,2.1
500,Troitskoye,8,RU,1541828607,76,52.98,84.68,-16.28,1.71
501,Ende,0,ID,1541828608,100,-8.84,121.65,28.72,3.81
502,Skjervoy,32,NO,1541828608,100,70.03,20.97,3.47,5.56
503,Namatanai,48,PG,1541828608,100,-3.66,152.44,28.72,4.58
504,High Rock,44,BS,1541828608,100,26.63,-78.28,25.9,3.31
505,Waitara,0,NZ,1541828609,92,-39.0,174.24,14.87,7.23
506,Cayenne,75,GF,1541827800,94,4.94,-52.33,23.0,0.5
507,Dehloran,0,IR,1541828609,78,32.69,47.27,17.25,2.16
508,Acapulco,5,MX,1541825100,88,16.86,-99.88,27.0,1.83
509,Ornskoldsvik,92,SE,1541825400,100,63.29,18.72,5.0,4.6
510,Fayaoue,0,NC,1541828610,97,-20.65,166.53,25.35,7.31
511,Fergus Falls,40,US,1541826960,66,46.28,-96.08,-11.0,2.6
512,Kathu,0,ZA,1541828611,21,-27.7,23.05,21.42,3.36
513,Bud,0,NO,1541825400,70,62.91,6.91,9.0,4.6
514,Raudeberg,8,NO,1541825400,57,61.99,5.14,11.0,9.3
515,Bad Salzungen,0,DE,1541825400,87,50.81,10.23,7.0,5.7
516,Todos Santos,5,MX,1541824980,78,23.45,-110.23,23.0,2.6
517,Ergani,0,TR,1541825400,93,38.27,39.76,7.0,2.1
518,Ndjole,80,GA,1541828613,97,-0.18,10.76,23.25,1.66
519,Merritt,75,CA,1541827380,86,50.11,-120.79,3.0,3.6
520,Lagoa,20,PT,1541826000,87,37.14,-8.45,16.0,3.1
521,Kachug,0,RU,1541828614,70,53.96,105.89,0.15,1.61
522,Lumberton,1,US,1541826900,89,30.27,-94.2,10.0,4.43
523,Evensk,0,RU,1541828615,100,61.92,159.24,-12.66,2.78
524,Ondjiva,0,AO,1541828615,42,-17.07,15.73,25.82,5.38
525,Saint-Georges,88,CA,1541828615,88,46.12,-70.67,1.1,4.48
526,Honiara,75,SB,1541827800,70,-9.43,159.96,30.0,7.2
527,Mocajuba,0,BR,1541828616,67,-2.58,-49.5,27.42,1.71
528,Henties Bay,0,NA,1541828616,99,-22.12,14.28,15.57,2.63
529,Charlestown,90,US,1541827260,96,41.38,-71.64,11.1,4.1
530,Nsanje,24,MZ,1541828617,68,-16.92,35.26,23.75,1.93
531,Mantua,75,IT,1541825700,100,45.16,10.79,13.0,1.0
532,Eyemouth,76,GB,1541825400,93,55.87,-2.09,9.0,3.6
533,Flagstaff,1,US,1541825820,43,35.2,-111.65,9.0,0.33
534,Hualmay,48,PE,1541828618,97,-11.1,-77.61,14.37,1.93
535,Kwekwe,0,ZW,1541828618,39,-18.93,29.81,17.87,5.33
536,Kudahuvadhoo,68,MV,1541828618,100,2.67,72.89,27.72,6.53
537,Jiamusi,92,CN,1541828619,90,46.81,130.37,0.77,5.56
538,Ahuimanu,90,US,1541825820,93,21.44,-157.84,26.1,4.1
539,Te Anau,56,NZ,1541828619,64,-45.41,167.72,9.97,1.78
540,Sept-Iles,90,CA,1541826000,73,50.2,-66.38,-3.0,3.1
541,Umm Lajj,0,SA,1541828620,86,25.02,37.27,24.02,2.41
542,Turukhansk,36,RU,1541828620,72,65.8,87.96,-26.91,2.91
543,Les Cayes,0,HT,1541828620,100,18.19,-73.75,26.85,0.38
544,Severomuysk,24,RU,1541828621,76,56.17,113.57,-16.93,1.13
545,Wajir,88,KE,1541828621,92,1.75,40.07,24.12,2.46
546,Ambilobe,8,MG,1541828621,66,-13.19,49.05,29.12,1.56
547,Marsabit,44,KE,1541828622,94,2.34,37.99,23.25,2.78
548,Springdale,1,US,1541825880,77,36.19,-94.13,-3.9,2.6
549,Kahului,40,US,1541825760,79,20.89,-156.47,27.2,5.1
550,San Carlos de Bariloche,40,AR,1541826000,93,-41.13,-71.31,7.0,2.6
551,Dandong,0,CN,1541828623,54,40.12,124.37,8.32,2.96
552,Verkhoyansk,0,RU,1541828623,46,67.55,133.39,-34.01,1.21
